[{"category_code":"web","homepage_url":"http:\/\/seesmic.com","name":"Seesmic","near_compoanies":5,"number_of_employees":13.0,"total_money_raised":16.0,"long":-122.419204,"lat":37.775196,"city":" California"},{"category_code":"games_video","homepage_url":"http:\/\/ilike.com","name":"iLike","near_compoanies":4,"number_of_employees":28.0,"total_money_raised":16.5,"long":-122.323408,"lat":47.615313,"city":" Washington"},{"category_code":"software","homepage_url":"http:\/\/www.xobni.com","name":"Xobni","near_compoanies":13,"number_of_employees":0.0,"total_money_raised":41.8,"long":-122.404052,"lat":37.789634,"city":" California"},{"category_code":"web","homepage_url":"http:\/\/www.disqus.com","name":"Disqus","near_compoanies":12,"number_of_employees":43.0,"total_money_raised":10.5,"long":-122.397672,"lat":37.786906,"city":" California"},{"category_code":"web","homepage_url":"http:\/\/www.eventbrite.com","name":"Eventbrite","near_compoanies":13,"number_of_employees":200.0,"total_money_raised":140.0,"long":-122.39071,"lat":37.779507,"city":" California"},{"category_code":"mobile","homepage_url":"http:\/\/www.pelago.com","name":"Pelago","near_compoanies":4,"number_of_employees":null,"total_money_raised":22.4,"long":-122.335373,"lat":47.607065,"city":" Washington"},{"category_code":"web","homepage_url":"http:\/\/hubpages.com","name":"HubPages","near_compoanies":12,"number_of_employees":21.0,"total_money_raised":8.0,"long":-122.3991505,"lat":37.7876952,"city":" California"},{"category_code":"games_video","homepage_url":"http:\/\/www.zynga.com","name":"Zynga","near_compoanies":6,"number_of_employees":115.0,"total_money_raised":860.0,"long":-122.404234,"lat":37.765158,"city":" California"},{"category_code":"software","homepage_url":"http:\/\/www.doubletwist.com","name":"doubleTwist","near_compoanies":5,"number_of_employees":null,"total_money_raised":7.5,"long":-122.419204,"lat":37.775196,"city":" California"},{"category_code":"games_video","homepage_url":"http:\/\/www.playfirst.com","name":"PlayFirst","near_compoanies":12,"number_of_employees":null,"total_money_raised":37.7,"long":-122.40185,"lat":37.790346,"city":" California"},{"category_code":"web","homepage_url":"http:\/\/www.okcupid.com","name":"OkCupid","near_compoanies":5,"number_of_employees":null,"total_money_raised":6.0,"long":-73.9955426,"lat":40.7368158,"city":" New York"},{"category_code":"web","homepage_url":"http:\/\/www.genbook.com","name":"Genbook","near_compoanies":12,"number_of_employees":12.0,"total_money_raised":2.2,"long":-122.4007791,"lat":37.789902,"city":" California"},{"category_code":"web","homepage_url":"http:\/\/www.huddler.com","name":"Huddler","near_compoanies":12,"number_of_employees":52.0,"total_money_raised":22.8,"long":-122.4013624,"lat":37.7893215,"city":" California"},{"category_code":"mobile","homepage_url":"http:\/\/squareup.com","name":"Square","near_compoanies":6,"number_of_employees":600.0,"total_money_raised":341.0,"long":-122.4173683364,"lat":37.7751154,"city":" California"},{"category_code":"mobile","homepage_url":"http:\/\/foursquare.com","name":"Foursquare","near_compoanies":16,"number_of_employees":170.0,"total_money_raised":147.0,"long":-122.4030125,"lat":37.7813452,"city":" California"}]